[{"Address":"100 S RAYMOND AVE","City":"ALHAMBRA","Zip":91801,"County":"Los Angeles","ER Service Level":"Emergency - Basic","Type":"Hospital","Discription":"General Acute Care Hospital","Lat":34.08988,"Long":-118.1449},{"Address":"4619 ROSEMEAD BLVD","City":"ROSEMEAD","Zip":91770,"County":"Los Angeles","ER Service Level":"Not Applicable","Type":"Hospital","Discription":"Acute Psychiatric Hospital","Lat":34.08926,"Long":-118.07352},{"Address":"1600 W AVE J","City":"LANCASTER","Zip":93534,"County":"Los Angeles","ER Service Level":"Emergency - Basic","Type":"Hospital","Discription":"General Acute Care Hospital","Lat":34.6878,"Long":-118.157981},{"Address":"100 FALLS CANYON RD","City":"AVALON","Zip":90704,"County":"Los Angeles","ER Service Level":"Emergency - Standby","Type":"Hospital","Discription":"General Acute Care Hospital","Lat":33.33887,"Long":-118.33369},{"Address":"14148 FRANCISQUITO AVE","City":"BALDWIN PARK","Zip":91706,"County":"Los Angeles","ER Service Level":"None","Type":"Hospital","Discription":"General Acute Care Hospital","Lat":34.06288,"Long":-117.967611},{"Address":"2000 STADIUM WAY","City":"LOS ANGELES","Zip":90026,"County":"Los Angeles","ER Service Level":"None","Type":"Hospital","Discription":"General Acute Care Hospital","Lat":34.08058,"Long":-118.24744},{"Address":"1050 Linden Ave","City":"Long Beach","Zip":90813,"County":"Los Angeles","ER Service Level":"Emergency - Basic","Type":"Hospital","Discription":"General Acute Care Hospital","Lat":33.7802376,"Long":-118.1866412},{"Address":"9542 Artesia Blvd","City":"Bellflower","Zip":90706,"County":"Los Angeles","ER Service Level":"Emergency - Basic","Type":"Hospital","Discription":"General Acute Care Hospital","Lat":33.87472,"Long":-118.12945},{"Address":"309 W BEVERLY BLVD","City":"MONTEBELLO","Zip":90640,"County":"Los Angeles","ER Service Level":"Emergency - Basic","Type":"Hospital","Discription":"General Acute Care Hospital","Lat":34.01614,"Long":-118.10132},{"Address":"3828 Delmas Ter","City":"Culver City","Zip":90232,"County":"Los Angeles","ER Service Level":"Emergency - Basic","Type":"Hospital","Discription":"General Acute Care Hospital","Lat":34.0231953,"Long":-118.3969429},{"Address":"1401 S GRAND AVE","City":"LOS ANGELES","Zip":90015,"County":"Los Angeles","ER Service Level":"Emergency - Basic","Type":"Hospital","Discription":"General Acute Care Hospital","Lat":34.03721,"Long":-118.26551},{"Address":"255 E Bonita Ave","City":"Pomona","Zip":91767,"County":"Los Angeles","ER Service Level":"None","Type":"Hospital","Discription":"General Acute Care Hospital","Lat":34.096265,"Long":-117.745655},{"Address":"555 E HARDY ST","City":"INGLEWOOD","Zip":90301,"County":"Los Angeles","ER Service Level":"Emergency - Basic","Type":"Hospital","Discription":"General Acute Care Hospital","Lat":33.94917,"Long":-118.34788},{"Address":"4211 Avalon Blvd","City":"Los Angeles","Zip":90011,"County":"Los Angeles","ER Service Level":"Not Applicable","Type":"Hospital","Discription":"Acute Psychiatric Hospital","Lat":34.0073123,"Long":-118.2661803},{"Address":"2070 Century Park E","City":"Los Angeles","Zip":90067,"County":"Los Angeles","ER Service Level":"None","Type":"Hospital","Discription":"General Acute Care Hospital","Lat":34.05899,"Long":-118.4124},{"Address":"21530 Pioneer Blvd","City":"Hawaiian Gardens","Zip":90716,"County":"Los Angeles","ER Service Level":"Emergency - Basic","Type":"Hospital","Discription":"General Acute Care Hospital","Lat":33.83377,"Long":-118.08176},{"Address":"1161 E COVINA BLVD","City":"COVINA","Zip":91724,"County":"Los Angeles","ER Service Level":"Not Applicable","Type":"Hospital","Discription":"Acute Psychiatric Hospital","Lat":34.10038,"Long":-117.866811},{"Address":"4650 W Sunset Blvd","City":"Los Angeles","Zip":90027,"County":"Los Angeles","ER Service Level":"Emergency - Basic","Type":"Hospital","Discription":"General Acute Care Hospital","Lat":34.0978692,"Long":-118.2909547},{"Address":"1500 Duarte Rd","City":"Duarte","Zip":91010,"County":"Los Angeles","ER Service Level":"None","Type":"Hospital","Discription":"General Acute Care Hospital","Lat":34.13219,"Long":-117.97356},{"Address":"10802 College Pl","City":"Cerritos","Zip":90703,"County":"Los Angeles","ER Service Level":"Not Applicable","Type":"Hospital","Discription":"Acute Psychiatric Hospital","Lat":33.8852,"Long":-118.10264},{"Address":"1246 W 155TH ST","City":"GARDENA","Zip":90247,"County":"Los Angeles","ER Service Level":"None","Type":"Hospital","Discription":"General Acute Care Hospital","Lat":33.89042,"Long":-118.29701},{"Address":"2623 E SLAUSON AVE","City":"HUNTINGTON PARK","Zip":90255,"County":"Los Angeles","ER Service Level":"Emergency - Basic","Type":"Hospital","Discription":"General Acute Care Hospital","Lat":33.98929,"Long":-118.22466},{"Address":"4081 E OLYMPIC BLVD","City":"LOS ANGELES","Zip":90023,"County":"Los Angeles","ER Service Level":"Emergency - Standby","Type":"Hospital","Discription":"General Acute Care Hospital","Lat":34.01897,"Long":-118.1875},{"Address":"438 W LAS TUNAS DR","City":"SAN GABRIEL","Zip":91776,"County":"Los Angeles","ER Service Level":"Emergency - Basic","Type":"Hospital","Discription":"General Acute Care Hospital","Lat":34.1024,"Long":-118.10503},{"Address":"23700 Camino del Sol","City":"Torrance","Zip":90505,"County":"Los Angeles","ER Service Level":"Not Applicable","Type":"Hospital","Discription":"Acute Psychiatric Hospital","Lat":33.80883,"Long":-118.34418},{"Address":"3700 South St","City":"Lakewood","Zip":90712,"County":"Los Angeles","ER Service Level":"Emergency - Basic","Type":"Hospital","Discription":"General Acute Care Hospital","Lat":33.859731,"Long":-118.1492012},{"Address":"11500 Brookshire Ave","City":"Downey","Zip":90241,"County":"Los Angeles","ER Service Level":"Emergency - Basic","Type":"Hospital","Discription":"General Acute Care Hospital","Lat":33.93515,"Long":-118.13196},{"Address":"4060 WHITTIER BLVD","City":"LOS ANGELES","Zip":90023,"County":"Los Angeles","ER Service Level":"Emergency - Basic","Type":"Hospital","Discription":"General Acute Care Hospital","Lat":34.02383,"Long":-118.18377},{"Address":"16237 VENTURA BLVD","City":"ENCINO","Zip":91436,"County":"Los Angeles","ER Service Level":"Emergency - Basic","Type":"Hospital","Discription":"General Acute Care Hospital","Lat":34.15686,"Long":-118.48662},{"Address":"250 S GRAND AVE","City":"GLENDORA","Zip":91741,"County":"Los Angeles","ER Service Level":"Emergency - Basic","Type":"Hospital","Discription":"General Acute Care Hospital","Lat":34.13384,"Long":-117.87244},{"Address":"5525 W SLAUSON AVE","City":"LOS ANGELES","Zip":90056,"County":"Los Angeles","ER Service Level":"None","Type":"Hospital","Discription":"General Acute Care Hospital","Lat":33.99021,"Long":-118.378431},{"Address":"525 N GARFIELD AVE","City":"MONTEREY PARK","Zip":91754,"County":"Los Angeles","ER Service Level":"Emergency - Basic","Type":"Hospital","Discription":"General Acute Care Hospital","Lat":34.06826,"Long":-118.12302},{"Address":"1891 EFFIE ST","City":"LOS ANGELES","Zip":90026,"County":"Los Angeles","ER Service Level":"Not Applicable","Type":"Hospital","Discription":"Acute Psychiatric Hospital","Lat":34.08515,"Long":-118.256571},{"Address":"1509 Wilson Ter","City":"Glendale","Zip":91206,"County":"Los Angeles","ER Service Level":"Emergency - Basic","Type":"Hospital","Discription":"General Acute Care Hospital","Lat":34.14951,"Long":-118.23109},{"Address":"150 W Route 66","City":"Glendora","Zip":91740,"County":"Los Angeles","ER Service Level":"Not Applicable","Type":"Hospital","Discription":"Acute Psychiatric Hospital","Lat":34.12867,"Long":-117.86609},{"Address":"1701 SANTA ANITA AVE","City":"SOUTH EL MONTE","Zip":91733,"County":"Los Angeles","ER Service Level":"Emergency - Basic","Type":"Hospital","Discription":"General Acute Care Hospital","Lat":34.04827,"Long":-118.04257},{"Address":"6245 DE LONGPRE AVE","City":"HOLLYWOOD","Zip":90028,"County":"Los Angeles","ER Service Level":"None","Type":"Hospital","Discription":"General Acute Care Hospital","Lat":34.09628,"Long":-118.32501},{"Address":"1300 N VERMONT AVE","City":"LOS ANGELES","Zip":90027,"County":"Los Angeles","ER Service Level":"Emergency - Basic","Type":"Hospital","Discription":"General Acute Care Hospital","Lat":34.09557,"Long":-118.29163},{"Address":"15031 RINALDI ST","City":"MISSION HILLS","Zip":91345,"County":"Los Angeles","ER Service Level":"Emergency - Basic","Type":"Hospital","Discription":"General Acute Care Hospital","Lat":34.2791,"Long":-118.45951},{"Address":"1225 WILSHIRE BLVD","City":"LOS ANGELES","Zip":90017,"County":"Los Angeles","ER Service Level":"Emergency - Basic","Type":"Hospital","Discription":"General Acute Care Hospital","Lat":34.05324,"Long":-118.26522},{"Address":"100 W CALIFORNIA BLVD","City":"PASADENA","Zip":91105,"County":"Los Angeles","ER Service Level":"Emergency - Basic","Type":"Hospital","Discription":"General Acute Care Hospital","Lat":34.13565,"Long":-118.1518},{"Address":"7500 Hellman Ave","City":"Rosemead","Zip":91770,"County":"Los Angeles","ER Service Level":"None","Type":"Hospital","Discription":"General Acute Care Hospital","Lat":34.0692926,"Long":-118.1057269},{"Address":"210 W SAN BERNARDINO RD","City":"COVINA","Zip":91723,"County":"Los Angeles","ER Service Level":"Emergency - Basic","Type":"Hospital","Discription":"General Acute Care Hospital","Lat":34.08993,"Long":-117.89264},{"Address":"3330 Lomita Blvd","City":"Torrance","Zip":90505,"County":"Los Angeles","ER Service Level":"Emergency - Basic","Type":"Hospital","Discription":"General Acute Care Hospital","Lat":33.8119157,"Long":-118.3434945},{"Address":"4867 W SUNSET BLVD","City":"LOS ANGELES","Zip":90027,"County":"Los Angeles","ER Service Level":"Emergency - Basic","Type":"Hospital","Discription":"General Acute Care Hospital","Lat":34.09875,"Long":-118.295371},{"Address":"25825 VERMONT AVE","City":"HARBOR CITY","Zip":90710,"County":"Los Angeles","ER Service Level":"Emergency - Basic","Type":"Hospital","Discription":"General Acute Care Hospital","Lat":33.78926,"Long":-118.29373},{"Address":"13652 Cantara St","City":"Panorama City","Zip":91402,"County":"Los Angeles","ER Service Level":"Emergency - Basic","Type":"Hospital","Discription":"General Acute Care Hospital","Lat":34.2198,"Long":-118.43103},{"Address":"6041 CADILLAC AVE","City":"LOS ANGELES","Zip":90034,"County":"Los Angeles","ER Service Level":"Emergency - Basic","Type":"Hospital","Discription":"General Acute Care Hospital","Lat":34.03793,"Long":-118.37568},{"Address":"14900 Imperial Hwy","City":"La Mirada","Zip":90638,"County":"Los Angeles","ER Service Level":"None","Type":"Hospital","Discription":"General Acute Care Hospital","Lat":33.91709,"Long":-118.01321},{"Address":"845 N LARK ELLEN AVE","City":"WEST COVINA","Zip":91791,"County":"Los Angeles","ER Service Level":"None","Type":"Hospital","Discription":"General Acute Care Hospital","Lat":34.0857,"Long":-117.91669},{"Address":"2900 E Del Mar Blvd","City":"Pasadena","Zip":91107,"County":"Los Angeles","ER Service Level":"Not Applicable","Type":"Hospital","Discription":"Acute Psychiatric Hospital","Lat":34.14213,"Long":-118.09041},{"Address":"4101 TORRANCE BLVD","City":"TORRANCE","Zip":90503,"County":"Los Angeles","ER Service Level":"Emergency - Basic","Type":"Hospital","Discription":"General Acute Care Hospital","Lat":33.83891,"Long":-118.356771},{"Address":"1720 TERMINO AVE","City":"LONG BEACH","Zip":90804,"County":"Los Angeles","ER Service Level":"Emergency - Basic","Type":"Hospital","Discription":"General Acute Care Hospital","Lat":33.78871,"Long":-118.14578},{"Address":"1725 PACIFIC AVE","City":"LONG BEACH","Zip":90813,"County":"Los Angeles","ER Service Level":"None","Type":"Hospital","Discription":"General Acute Care Hospital","Lat":33.78868,"Long":-118.19382},{"Address":"4650 Lincoln Blvd","City":"Marina del Rey","Zip":90292,"County":"Los Angeles","ER Service Level":"Emergency - Basic","Type":"Hospital","Discription":"General Acute Care Hospital","Lat":33.98125,"Long":-118.43971},{"Address":"18321 CLARK ST","City":"TARZANA","Zip":91356,"County":"Los Angeles","ER Service Level":"Emergency - Basic","Type":"Hospital","Discription":"General Acute Care Hospital","Lat":34.17067,"Long":-118.532001},{"Address":"1145 W REDONDO BEACH BLVD","City":"GARDENA","Zip":90247,"County":"Los Angeles","ER Service Level":"Emergency - Basic","Type":"Hospital","Discription":"General Acute Care Hospital","Lat":33.89246,"Long":-118.29493},{"Address":"1420 S CENTRAL AVE","City":"GLENDALE","Zip":91204,"County":"Los Angeles","ER Service Level":"Emergency - Basic","Type":"Hospital","Discription":"General Acute Care Hospital","Lat":34.1284,"Long":-118.25769},{"Address":"13300 Hawthorne Blvd","City":"Hawthorne","Zip":90250,"County":"Los Angeles","ER Service Level":"None","Type":"Hospital","Discription":"General Acute Care Hospital","Lat":33.91145,"Long":-118.35238},{"Address":"14850 ROSCOE BLVD","City":"PANORAMA CITY","Zip":91402,"County":"Los Angeles","ER Service Level":"Emergency - Basic","Type":"Hospital","Discription":"General Acute Care Hospital","Lat":34.22138,"Long":-118.45639},{"Address":"2801 ATLANTIC AVE","City":"LONG BEACH","Zip":90806,"County":"Los Angeles","ER Service Level":"Emergency - Basic","Type":"Hospital","Discription":"General Acute Care Hospital","Lat":33.80801,"Long":-118.1852},{"Address":"300 W HUNTINGTON DR","City":"ARCADIA","Zip":91007,"County":"Los Angeles","ER Service Level":"Emergency - Basic","Type":"Hospital","Discription":"General Acute Care Hospital","Lat":34.13603,"Long":-118.03879},{"Address":"5900 W Olympic Blvd","City":"Los Angeles","Zip":90036,"County":"Los Angeles","ER Service Level":"Emergency - Basic","Type":"Hospital","Discription":"General Acute Care Hospital","Lat":34.05754,"Long":-118.36008},{"Address":"323 S HELIOTROPE AVE","City":"MONROVIA","Zip":91016,"County":"Los Angeles","ER Service Level":"None","Type":"Hospital","Discription":"General Acute Care Hospital","Lat":34.149086,"Long":-117.992205},{"Address":"900 S ATLANTIC BLVD","City":"MONTEREY PARK","Zip":91754,"County":"Los Angeles","ER Service Level":"Emergency - Basic","Type":"Hospital","Discription":"General Acute Care Hospital","Lat":34.05308,"Long":-118.13665},{"Address":"23388 Mulholland Dr","City":"Woodland Hills","Zip":91364,"County":"Los Angeles","ER Service Level":"Not Applicable","Type":"Hospital","Discription":"Acute Psychiatric Hospital","Lat":34.1584,"Long":-118.63605},{"Address":"8700 Beverly Blvd","City":"Los Angeles","Zip":90048,"County":"Los Angeles","ER Service Level":"Emergency - Basic","Type":"Hospital","Discription":"General Acute Care Hospital","Lat":34.07681,"Long":-118.38061},{"Address":"18300 Roscoe Blvd","City":"Northridge","Zip":91325,"County":"Los Angeles","ER Service Level":"Emergency - Basic","Type":"Hospital","Discription":"General Acute Care Hospital","Lat":34.22075,"Long":-118.53186},{"Address":"13222 BLOOMFIELD AVE","City":"NORWALK","Zip":90650,"County":"Los Angeles","ER Service Level":"Emergency - Basic","Type":"Hospital","Discription":"General Acute Care Hospital","Lat":33.91108,"Long":-118.0644},{"Address":"2776 PACIFIC AVE","City":"LONG BEACH","Zip":90806,"County":"Los Angeles","ER Service Level":"Emergency - Basic","Type":"Hospital","Discription":"General Acute Care Hospital","Lat":33.80759,"Long":-118.19355},{"Address":"16453 Colorado Ave","City":"Paramount","Zip":90723,"County":"Los Angeles","ER Service Level":"None","Type":"Hospital","Discription":"General Acute Care Hospital","Lat":33.8849,"Long":-118.16144},{"Address":"1798 N GAREY AVE","City":"POMONA","Zip":91767,"County":"Los Angeles","ER Service Level":"Emergency - Basic","Type":"Hospital","Discription":"General Acute Care Hospital","Lat":34.07709,"Long":-117.750621},{"Address":"12401 Washington Blvd","City":"Whittier","Zip":90602,"County":"Los Angeles","ER Service Level":"Emergency - Basic","Type":"Hospital","Discription":"General Acute Care Hospital","Lat":33.9697943,"Long":-118.049255},{"Address":"1115 S SUNSET AVE","City":"WEST COVINA","Zip":91790,"County":"Los Angeles","ER Service Level":"Emergency - Basic","Type":"Hospital","Discription":"General Acute Care Hospital","Lat":34.06242,"Long":-117.94528},{"Address":"765 W COLLEGE ST","City":"LOS ANGELES","Zip":90012,"County":"Los Angeles","ER Service Level":"None","Type":"Hospital","Discription":"General Acute Care Hospital","Lat":34.06657,"Long":-118.243391},{"Address":"1711 W TEMPLE ST","City":"LOS ANGELES","Zip":90026,"County":"Los Angeles","ER Service Level":"None","Type":"Hospital","Discription":"General Acute Care Hospital","Lat":34.06879,"Long":-118.26324},{"Address":"1350 W COVINA BLVD","City":"SAN DIMAS","Zip":91773,"County":"Los Angeles","ER Service Level":"Emergency - Basic","Type":"Hospital","Discription":"General Acute Care Hospital","Lat":34.099076,"Long":-117.834328},{"Address":"1300 W 7TH ST","City":"SAN PEDRO","Zip":90732,"County":"Los Angeles","ER Service Level":"Emergency - Basic","Type":"Hospital","Discription":"General Acute Care Hospital","Lat":33.737939,"Long":-118.303893},{"Address":"6000 SAN VICENTE BLVD","City":"LOS ANGELES","Zip":90036,"County":"Los Angeles","ER Service Level":"None","Type":"Hospital","Discription":"General Acute Care Hospital","Lat":34.0572,"Long":-118.36195},{"Address":"1250 16TH ST","City":"SANTA MONICA","Zip":90404,"County":"Los Angeles","ER Service Level":"Emergency - Basic","Type":"Hospital","Discription":"General Acute Care Hospital","Lat":34.027539,"Long":-118.486123},{"Address":"9449 SAN FERNANDO RD","City":"SUN VALLEY","Zip":91352,"County":"Los Angeles","ER Service Level":"Emergency - Basic","Type":"Hospital","Discription":"General Acute Care Hospital","Lat":34.24088,"Long":-118.39555},{"Address":"4929 VAN NUYS BLVD","City":"SHERMAN OAKS","Zip":91403,"County":"Los Angeles","ER Service Level":"Emergency - Basic","Type":"Hospital","Discription":"General Acute Care Hospital","Lat":34.15995,"Long":-118.4488},{"Address":"3630 E Imperial Hwy","City":"Lynwood","Zip":90262,"County":"Los Angeles","ER Service Level":"Emergency - Basic","Type":"Hospital","Discription":"General Acute Care Hospital","Lat":33.93085,"Long":-118.20415},{"Address":"2121 Santa Monica Blvd","City":"Santa Monica","Zip":90404,"County":"Los Angeles","ER Service Level":"Emergency - Basic","Type":"Hospital","Discription":"General Acute Care Hospital","Lat":34.029804,"Long":-118.478668},{"Address":"501 S Buena Vista St","City":"Burbank","Zip":91505,"County":"Los Angeles","ER Service Level":"Emergency - Basic","Type":"Hospital","Discription":"General Acute Care Hospital","Lat":34.15486,"Long":-118.32655},{"Address":"13100 Studebaker Rd","City":"Norwalk","Zip":90650,"County":"Los Angeles","ER Service Level":"Emergency - Basic","Type":"Hospital","Discription":"General Acute Care Hospital","Lat":33.91255,"Long":-118.09915},{"Address":"18646 OXNARD ST","City":"TARZANA","Zip":91356,"County":"Los Angeles","ER Service Level":"Not Applicable","Type":"Hospital","Discription":"Acute Psychiatric Hospital","Lat":34.17923,"Long":-118.539761},{"Address":"757 WESTWOOD PLAZA","City":"LOS ANGELES","Zip":90095,"County":"Los Angeles","ER Service Level":"Emergency - Comprehensive","Type":"Hospital","Discription":"General Acute Care Hospital","Lat":34.068889,"Long":-118.445},{"Address":"15107 Vanowen St","City":"Van Nuys","Zip":91405,"County":"Los Angeles","ER Service Level":"Emergency - Basic","Type":"Hospital","Discription":"General Acute Care Hospital","Lat":34.19396,"Long":-118.4632},{"Address":"14433 EMELITA ST","City":"VAN NUYS","Zip":91401,"County":"Los Angeles","ER Service Level":"None","Type":"Hospital","Discription":"General Acute Care Hospital","Lat":34.17673,"Long":-118.44724},{"Address":"1812 VERDUGO BLVD","City":"GLENDALE","Zip":91208,"County":"Los Angeles","ER Service Level":"Emergency - Basic","Type":"Hospital","Discription":"General Acute Care Hospital","Lat":34.20557,"Long":-118.2152},{"Address":"725 S ORANGE AVE","City":"WEST COVINA","Zip":91790,"County":"Los Angeles","ER Service Level":"None","Type":"Hospital","Discription":"General Acute Care Hospital","Lat":34.07042,"Long":-117.94505},{"Address":"7300 Medical Center Dr","City":"West Hills","Zip":91307,"County":"Los Angeles","ER Service Level":"Emergency - Basic","Type":"Hospital","Discription":"General Acute Care Hospital","Lat":34.20337,"Long":-118.62939},{"Address":"1720 E Cesar E Chavez Ave","City":"Los Angeles","Zip":90033,"County":"Los Angeles","ER Service Level":"Emergency - Basic","Type":"Hospital","Discription":"General Acute Care Hospital","Lat":34.05085,"Long":-118.21691},{"Address":"9080 COLIMA RD","City":"WHITTIER","Zip":90605,"County":"Los Angeles","ER Service Level":"Emergency - Basic","Type":"Hospital","Discription":"General Acute Care Hospital","Lat":33.95379,"Long":-118.00303},{"Address":"150 Medical Plaza","City":"LOS ANGELES","Zip":90095,"County":"Los Angeles","ER Service Level":"Not Applicable","Type":"Hospital","Discription":"Acute Psychiatric Hospital","Lat":34.0650255,"Long":-118.4458953},{"Address":"23845 McBean Pkwy","City":"Valencia","Zip":91355,"County":"Los Angeles","ER Service Level":"Emergency - Basic","Type":"Hospital","Discription":"General Acute Care Hospital","Lat":34.39545,"Long":-118.55476},{"Address":"11401 Bloomfield Ave","City":"Norwalk","Zip":90650,"County":"Los Angeles","ER Service Level":"Not Applicable","Type":"Hospital","Discription":"Acute Psychiatric Hospital","Lat":33.9241831,"Long":-118.0640187},{"Address":"1441 Eastlake Ave","City":"Los Angeles","Zip":90033,"County":"Los Angeles","ER Service Level":"None","Type":"Hospital","Discription":"General Acute Care Hospital","Lat":34.062,"Long":-118.20471},{"Address":"1775 CHESTNUT AVE","City":"LONG BEACH","Zip":90813,"County":"Los Angeles","ER Service Level":"Not Applicable","Type":"Hospital","Discription":"Chemical Dep. Recovery Hospital","Lat":33.7894,"Long":-118.19647},{"Address":"1000 W Carson St","City":"Torrance","Zip":90502,"County":"Los Angeles","ER Service Level":"Emergency - Basic","Type":"Hospital","Discription":"General Acute Care Hospital","Lat":33.83155,"Long":-118.29353},{"Address":"1200 N State St","City":"Los Angeles","Zip":90033,"County":"Los Angeles","ER Service Level":"Emergency - Comprehensive","Type":"Hospital","Discription":"General Acute Care Hospital","Lat":34.05982,"Long":-118.21031},{"Address":"1680 E 120th St","City":"Los Angeles","Zip":90059,"County":"Los Angeles","ER Service Level":"Emergency - Basic","Type":"Hospital","Discription":"General Acute Care Hospital","Lat":33.92453,"Long":-118.2435},{"Address":"14445 OLIVE VIEW DR","City":"SYLMAR","Zip":91342,"County":"Los Angeles","ER Service Level":"Emergency - Basic","Type":"Hospital","Discription":"General Acute Care Hospital","Lat":34.32418,"Long":-118.45255},{"Address":"7601 IMPERIAL HWY","City":"DOWNEY","Zip":90242,"County":"Los Angeles","ER Service Level":"None","Type":"Hospital","Discription":"General Acute Care Hospital","Lat":33.92723,"Long":-118.15795},{"Address":"5601 DE SOTO AVE","City":"WOODLAND HILLS","Zip":91367,"County":"Los Angeles","ER Service Level":"Emergency - Basic","Type":"Hospital","Discription":"General Acute Care Hospital","Lat":34.17198,"Long":-118.58829},{"Address":"2180 Valley Blvd","City":"Pomona","Zip":91768,"County":"Los Angeles","ER Service Level":"Not Applicable","Type":"Hospital","Discription":"Chemical Dep. Recovery Hospital","Lat":34.06133,"Long":-117.79059},{"Address":"17800 WOODRUFF AVE","City":"BELLFLOWER","Zip":90706,"County":"Los Angeles","ER Service Level":"Not Applicable","Type":"Hospital","Discription":"Psychiatric Health Facility","Lat":33.87092,"Long":-118.1171},{"Address":"1500 SAN PABLO ST","City":"LOS ANGELES","Zip":90033,"County":"Los Angeles","ER Service Level":"None","Type":"Hospital","Discription":"General Acute Care Hospital","Lat":34.06284,"Long":-118.20287},{"Address":"4025 W 226TH ST","City":"TORRANCE","Zip":90505,"County":"Los Angeles","ER Service Level":"Not Applicable","Type":"Hospital","Discription":"Psychiatric Health Facility","Lat":33.82363,"Long":-118.35565},{"Address":"6060 N PARAMOUNT BLVD","City":"LONG BEACH","Zip":90805,"County":"Los Angeles","ER Service Level":"Not Applicable","Type":"Hospital","Discription":"Psychiatric Health Facility","Lat":33.86412,"Long":-118.15979},{"Address":"1011 BALDWIN PARK BLVD","City":"BALDWIN PARK","Zip":91706,"County":"Los Angeles","ER Service Level":"Emergency - Basic","Type":"Hospital","Discription":"General Acute Care Hospital","Lat":34.06348,"Long":-117.986},{"Address":"2801 Atlantic Ave","City":"Long Beach","Zip":90806,"County":"Los Angeles","ER Service Level":"None","Type":"Hospital","Discription":"General Acute Care Hospital","Lat":33.80807,"Long":-118.18506},{"Address":"9333 Imperial Hwy","City":"Downey","Zip":90242,"County":"Los Angeles","ER Service Level":"Emergency - Basic","Type":"Hospital","Discription":"General Acute Care Hospital","Lat":33.9171234,"Long":-118.1290216},{"Address":"7150 TAMPA AVE","City":"RESEDA","Zip":91335,"County":"Los Angeles","ER Service Level":"Not Applicable","Type":"Hospital","Discription":"Acute Psychiatric Hospital","Lat":34.20014,"Long":-118.55341},{"Address":"38600 Medical Center Dr","City":"Palmdale","Zip":93551,"County":"Los Angeles","ER Service Level":"Emergency - Basic","Type":"Hospital","Discription":"General Acute Care Hospital","Lat":34.5843754,"Long":-118.1443461},{"Address":"9808 Venice Blvd","City":"Culver City","Zip":90232,"County":"Los Angeles","ER Service Level":"Not Applicable","Type":"Hospital","Discription":"Psychiatric Health Facility","Lat":34.02359,"Long":-118.39817},{"Address":"2600 Redondo Ave","City":"Long Beach","Zip":90806,"County":"Los Angeles","ER Service Level":"Not Applicable","Type":"Hospital","Discription":"Psychiatric Health Facility","Lat":33.8043,"Long":-118.1513},{"Address":"1322 W 6TH ST","City":"SAN PEDRO","Zip":90732,"County":"Los Angeles","ER Service Level":"None","Type":"Hospital","Discription":"General Acute Care Hospital","Lat":33.73902,"Long":-118.306281},{"Address":"4320 MARICOPA ST","City":"TORRANCE","Zip":90503,"County":"Los Angeles","ER Service Level":"None","Type":"Hospital","Discription":"General Acute Care Hospital","Lat":33.83903,"Long":-118.359711}]